{
  "restaurants": [
    {
      "name": "Freebirds World Burrito",
      "cuisine": "Mexican",
      "type": "Fast Casual",
      "address": "879 Embarcadero del Norte",
      "lat": 34.4132106,
      "lon": -119.85557
    },
    {
      "name": "Woodstock's Pizza",
      "cuisine": "Pizza",
      "type": "Restaurant",
      "address": "6547 Pardall Rd",
      "lat": 34.412334036319635,
      "lon": -119.85519539436072
    },
    {
      "name": "The Habit Burger Grill",
      "cuisine": "Burgers",
      "type": "Fast Casual",
      "address": "888 Embarcadero del Norte",
      "lat": 34.413217, 
      "lon": -119.855103
    },
    {
      "name": "Hana Kitchen",
      "cuisine": "Japanese",
      "type": "Restaurant",
      "address": "6560 Pardall Rd",
      "lat": 34.41328142726169,
      "lon": -119.8564941824071
    },
    {
      "name": "Caje",
      "cuisine": "Cafe/Breakfast",
      "type": "Cafe",
      "address": "6533 Pardall Rd",
      "lat": 34.41225485112163, 
      "lon": -119.855228875013
    },
    {
      "name": "I.V. Drip",
      "cuisine": "Coffee/Cafe",
      "type": "Cafe",
      "address": "6555 Pardall Rd",
      "lat": 34.41404102349168,
      "lon": -119.85566898552626
    },
    {
      "name": "Naan Stop",
      "cuisine": "Indian",
      "type": "Fast Casual",
      "address": "868 Embarcadero del Norte",
      "lat": 34.41212918097768, 
      "lon": -119.85644146164617
    },
    {
    "name": "L&L Hawaiian Barbecue",
    "cuisine": "Hawaiian",
    "type": "Poke Bowl",
    "address": "7127 Hollister Avenue",
    "lat": 34.4283741,
    "lon": -119.8765902
    },
    {
    "name": "Phamous Caf√©",
    "cuisine": "Vietnaemse",
    "type": "Fast Food",
    "address": "7127 Hollister Avenue",
    "lat": 34.428250135856246, 
    "lon": -119.87644770408842
    },
    {
    "name": "On The Alley",
    "cuisine": "Seafood",
    "type": "Restaurant",
    "address": "7038 Marketplace Drive",
    "lat": 34.4295206,
    "lon": -119.87258
    },
    {
    "name": "Santa Barbara Fish Market",
    "cuisine": "Seafood",
    "type": "Restaurant",
    "address": "7127 Hollister Avenue",
    "lat": 34.4286445,
    "lon": -119.876674
    },
    {
      "name": "Antojitos La Paloma",
      "cuisine": "Mexican",
      "type": "Fast Casual",
      "address": "6543 Pardall Road",
      "lat": 34.412957,
      "lon": -119.8557363
    },
    {
      "name": "Asia 101",
      "cuisine": "Asian Fusion",
      "type": "Fast Casual",
      "address": "903 Embarcadero del Norte",
      "lat": 34.4129208,
      "lon": -119.8556294
    },
    {
      "name": "Cajun Kitchen Cafe",
      "cuisine": "Breakfast / Cajun",
      "type": "Restaurant",
      "address": "6831 Hollister Avenue",
      "lat": 34.4299959,
      "lon": -119.8670376
    },
    {
      "name": "Chili's",
      "cuisine": "American",
      "type": "Fast Casual",
      "address": "6950 Marketplace Drive",
      "lat": 34.4297161,
      "lon": -119.8706223
    },
    {
      "name": "Chop Chinese Food",
      "cuisine": "Chinese",
      "type": "Fast Casual",
      "address": "966 Embarcadero del Mar",
      "lat": 34.4117012,
      "lon": -119.8568484
    },
    {
      "name": "Elubia's Kitchen",
      "cuisine": "Mexican",
      "type": "Fast Casual",
      "address": "6578 Trigo Road",
      "lat": 34.4113408,
      "lon": -119.8577174
    },
    {
      "name": "Hummus Republic",
      "cuisine": "Mediterranean",
      "type": "Fast Casual",
      "address": "6546 Pardall Road",
      "lat": 34.4132785,
      "lon": -119.8559221
    },
    {
      "name": "Jane",
      "cuisine": "American",
      "type": "Restaurant",
      "address": "6940 Marketplace Drive",
      "lat": 34.4295388,
      "lon": -119.8702396
    },
    {
      "name": "Kaiju",
      "cuisine": "Japanese",
      "type": "Restaurant",
      "address": "901 Embarcadero del Mar",
      "lat": 34.4128217,
      "lon": -119.8572315
    } ,
    {
      "name": "Lao Wang",
      "cuisine": "Chinese",
      "type": "Fast Casual",
      "address": "6580 Trigo Road",
      "lat": 34.4115003,
      "lon": -119.8579206
    },
    {
      "name": "Maria's Tacos",
      "cuisine": "Mexican",
      "type": "Fast Casual",
      "address": "6545 Pardall Road",
      "lat": 34.4129596,
      "lon": -119.8557927
    },
    {
      "name": "Rusty's Pizza Parlor",
      "cuisine": "American",
      "type": "Fast Casual",
      "address": "6583 Pardall Road",
      "lat": 34.4128728,
      "lon": -119.8578199
    },
    {
      "name": "Saigon Noodle House",
      "cuisine": "Vietnamese",
      "type": "Fast Casual",
      "address": "6831 Hollister Avenue",
      "lat": 34.4293253,
      "lon": -119.8670536
    },
    {
      "name": "Su's Bowl",
      "cuisine": "Chinese",
      "type": "Fast Casual",
      "address": "901 Embarcadero del Mar",
      "lat": 34.4129906,
      "lon": -119.8574343
    },
    {
      "name": "Teddy Rice",
      "cuisine": "Asian Fusion",
      "type": "Fast Casual",
      "address": "966 Embarcadero del Mar",
      "lat": 34.4118312,
      "lon": -119.8568476
    },
    {
      "name": "Yetz's Bagels",
      "cuisine": "American",
      "type": "Fast Casual",
      "address": "901 Embarcadero del Mar",
      "lat": 34.4128864,
      "lon": -119.8572289
    },
    {
      "name": "Yetz's Deli",
      "cuisine": "American",
      "type": "Fast Casual",
      "address": "901 Embarcadero del Mar",
      "lat": 34.412989,
      "lon": -119.8572169
    },
    {
      "name": "Zocalo",
      "cuisine": "Mexican",
      "type": "Fast Casual",
      "address": "901 Embarcadero del Mar",
      "lat": 34.4129879,
      "lon": -119.8573232
    }    
  ]
}

